{
"type": "FeatureCollection",
"crs": { "type": "name", "properties": { "name": "urn:ogc:def:crs:OGC:1.3:CRS84" } },
                                                                                
"features": [
{ "type": "Feature", "properties": { "AREA": 0, "PERIMETER": 0, "NAME": "淡水站", "LOC": "原有台鐵淡水站附近" }, "geometry": { "type": "Point", "coordinates": [ 121.4452583081884, 25.167993283329302 ] } },
{ "type": "Feature", "properties": { "AREA": 0, "PERIMETER": 0, "NAME": "紅樹林站", "LOC": "現有外北勢溪附近" }, "geometry": { "type": "Point", "coordinates": [ 121.458954512046134, 25.154114157533641 ] } },
{ "type": "Feature", "properties": { "AREA": 0, "PERIMETER": 0, "NAME": "竹圍站", "LOC": "原有台鐵竹圍站附近" }, "geometry": { "type": "Point", "coordinates": [ 121.45945645181078, 25.136949033211263 ] } },
{ "type": "Feature", "properties": { "AREA": 0, "PERIMETER": 0, "NAME": "關渡站", "LOC": "關渡國小附近近靠原台鐵淡水線" }, "geometry": { "type": "Point", "coordinates": [ 121.467199724937146, 25.125784713139492 ] } },
{ "type": "Feature", "properties": { "AREA": 0, "PERIMETER": 0, "NAME": "忠義站", "LOC": "中央北路四段 (捷運系統北投機廠西側)" }, "geometry": { "type": "Point", "coordinates": [ 121.473122240970298, 25.130750885216589 ] } },
{ "type": "Feature", "properties": { "AREA": 0, "PERIMETER": 0, "NAME": "新北投站", "LOC": "原台鐵新北投站附近" }, "geometry": { "type": "Point", "coordinates": [ 121.502531171385343, 25.136936401898978 ] } },
{ "type": "Feature", "properties": { "AREA": 0, "PERIMETER": 0, "NAME": "北投站", "LOC": "原台鐵北投站址" }, "geometry": { "type": "Point", "coordinates": [ 121.498591159862414, 25.131907048775616 ] } },
{ "type": "Feature", "properties": { "AREA": 0, "PERIMETER": 0, "NAME": "奇岩站", "LOC": "原台鐵淡水線與三合街交叉口" }, "geometry": { "type": "Point", "coordinates": [ 121.501082982431384, 25.125584855497337 ] } },
{ "type": "Feature", "properties": { "AREA": 0, "PERIMETER": 0, "NAME": "唭哩岸站", "LOC": "原台鐵淡水線與東華街２段３００巷交叉口" }, "geometry": { "type": "Point", "coordinates": [ 121.506264810466504, 25.120857945623698 ] } },
{ "type": "Feature", "properties": { "AREA": 0, "PERIMETER": 0, "NAME": "石牌站", "LOC": "原台鐵淡水線與石牌路交叉口" }, "geometry": { "type": "Point", "coordinates": [ 121.515642284870268, 25.114420305321374 ] } },
{ "type": "Feature", "properties": { "AREA": 0, "PERIMETER": 0, "NAME": "明德站", "LOC": "原台鐵淡水線與明德路交叉口" }, "geometry": { "type": "Point", "coordinates": [ 121.518820409163766, 25.109793935885502 ] } },
{ "type": "Feature", "properties": { "AREA": 0, "PERIMETER": 0, "NAME": "芝山站", "LOC": "原台鐵淡水線與福國路交叉口" }, "geometry": { "type": "Point", "coordinates": [ 121.522542284583125, 25.102811027227663 ] } },
{ "type": "Feature", "properties": { "AREA": 0, "PERIMETER": 0, "NAME": "圓山站", "LOC": "原台鐵淡水線與酒泉街交叉口" }, "geometry": { "type": "Point", "coordinates": [ 121.520131784780517, 25.071380222093623 ] } },
{ "type": "Feature", "properties": { "AREA": 0, "PERIMETER": 0, "NAME": "劍潭站", "LOC": "原台鐵淡水線與９６號計劃道路交叉口" }, "geometry": { "type": "Point", "coordinates": [ 121.524969141643226, 25.084236417468595 ] } },
{ "type": "Feature", "properties": { "AREA": 0, "PERIMETER": 0, "NAME": "士林站", "LOC": "原台鐵士林站址" }, "geometry": { "type": "Point", "coordinates": [ 121.526191542039385, 25.093473979666197 ] } },
{ "type": "Feature", "properties": { "AREA": 0, "PERIMETER": 0, "NAME": "民權西路站", "LOC": "原台鐵淡水線與民權西路交叉口" }, "geometry": { "type": "Point", "coordinates": [ 121.519362740279277, 25.062876665363273 ] } },
{ "type": "Feature", "properties": { "AREA": 0, "PERIMETER": 0, "NAME": "雙連站", "LOC": "原台鐵淡水線與民生西路交叉口" }, "geometry": { "type": "Point", "coordinates": [ 121.520709993016141, 25.057646860243683 ] } },
{ "type": "Feature", "properties": { "AREA": 0, "PERIMETER": 0, "NAME": "中山站", "LOC": "原台鐵淡水線與南京西路交叉口" }, "geometry": { "type": "Point", "coordinates": [ 121.520396899948025, 25.052675664748079 ] } },
{ "type": "Feature", "properties": { "AREA": 0, "PERIMETER": 0, "NAME": "臺大醫院站", "LOC": "公園路與常德街口" }, "geometry": { "type": "Point", "coordinates": [ 121.516220077324277, 25.041827029154796 ] } },
{ "type": "Feature", "properties": { "AREA": 0, "PERIMETER": 0, "NAME": "動物園站", "LOC": "新光路木柵動物園正門口右側" }, "geometry": { "type": "Point", "coordinates": [ 121.57932507629134, 24.998277485280155 ] } },
{ "type": "Feature", "properties": { "AREA": 0, "PERIMETER": 0, "NAME": "木柵站", "LOC": "木柵路４段與軍功路交叉口附近" }, "geometry": { "type": "Point", "coordinates": [ 121.573175981861354, 24.998253352528316 ] } },
{ "type": "Feature", "properties": { "AREA": 0, "PERIMETER": 0, "NAME": "萬芳社區站", "LOC": "萬芳路南側臨近萬和街口" }, "geometry": { "type": "Point", "coordinates": [ 121.568066678678619, 24.998607713500022 ] } },
{ "type": "Feature", "properties": { "AREA": 0, "PERIMETER": 0, "NAME": "萬芳醫院站", "LOC": "興隆路３段北側警察專科學校附近" }, "geometry": { "type": "Point", "coordinates": [ 121.558028561334524, 24.999504452038675 ] } },
{ "type": "Feature", "properties": { "AREA": 0, "PERIMETER": 0, "NAME": "辛亥站", "LOC": "辛亥站西側臨近萬美街口處" }, "geometry": { "type": "Point", "coordinates": [ 121.557010243552966, 25.005383562847872 ] } },
{ "type": "Feature", "properties": { "AREA": 0, "PERIMETER": 0, "NAME": "麟光站", "LOC": "和平東路底麟光新村西側" }, "geometry": { "type": "Point", "coordinates": [ 121.558827032037428, 25.018523230734022 ] } },
{ "type": "Feature", "properties": { "AREA": 0, "PERIMETER": 0, "NAME": "六張犁站", "LOC": "和平東路與基隆路口附近之和平東路上" }, "geometry": { "type": "Point", "coordinates": [ 121.553057973180827, 25.023844875733086 ] } },
{ "type": "Feature", "properties": { "AREA": 0, "PERIMETER": 0, "NAME": "科技大樓站", "LOC": "復興南路與和平東路口附近之復興南路上" }, "geometry": { "type": "Point", "coordinates": [ 121.543451471945389, 25.025991976476909 ] } },
{ "type": "Feature", "properties": { "AREA": 0, "PERIMETER": 0, "NAME": "大安站", "LOC": "復興南路與信義路交叉口" }, "geometry": { "type": "Point", "coordinates": [ 121.543626108364407, 25.032820573073614 ] } },
{ "type": "Feature", "properties": { "AREA": 0, "PERIMETER": 0, "NAME": "中山國中站", "LOC": "復興北路介於錦州街與民權東路之間" }, "geometry": { "type": "Point", "coordinates": [ 121.544216438630315, 25.060806112702632 ] } },
{ "type": "Feature", "properties": { "AREA": 0, "PERIMETER": 0, "NAME": "南港站", "LOC": "南港火車站旁" }, "geometry": { "type": "Point", "coordinates": [ 121.607634208347378, 25.052178378321734 ] } },
{ "type": "Feature", "properties": { "AREA": 0, "PERIMETER": 0, "NAME": "昆陽站", "LOC": "忠孝東路與向陽路口" }, "geometry": { "type": "Point", "coordinates": [ 121.593020112386299, 25.05018865662031 ] } },
{ "type": "Feature", "properties": { "AREA": 0, "PERIMETER": 0, "NAME": "後山埤站", "LOC": "忠孝東路與永吉路口" }, "geometry": { "type": "Point", "coordinates": [ 121.582004076982756, 25.044278553628043 ] } },
{ "type": "Feature", "properties": { "AREA": 0, "PERIMETER": 0, "NAME": "永春站", "LOC": "虎林街與忠孝東路口" }, "geometry": { "type": "Point", "coordinates": [ 121.575872858647358, 25.040863616679207 ] } },
{ "type": "Feature", "properties": { "AREA": 0, "PERIMETER": 0, "NAME": "市政府站", "LOC": "基隆路與忠孝東路口" }, "geometry": { "type": "Point", "coordinates": [ 121.565259454056488, 25.041178891090365 ] } },
{ "type": "Feature", "properties": { "AREA": 0, "PERIMETER": 0, "NAME": "國父紀念館", "LOC": "忠孝東路與光復南路交叉口" }, "geometry": { "type": "Point", "coordinates": [ 121.557688949267799, 25.041347467452919 ] } },
{ "type": "Feature", "properties": { "AREA": 0, "PERIMETER": 0, "NAME": "忠孝敦化站", "LOC": "忠孝東路統領商圈附近" }, "geometry": { "type": "Point", "coordinates": [ 121.549655956280759, 25.041494800943632 ] } },
{ "type": "Feature", "properties": { "AREA": 0, "PERIMETER": 0, "NAME": "忠孝復興站", "LOC": "忠孝東路與復興南路交叉口" }, "geometry": { "type": "Point", "coordinates": [ 121.54379399916067, 25.041602162432316 ] } },
{ "type": "Feature", "properties": { "AREA": 0, "PERIMETER": 0, "NAME": "台電大樓站", "LOC": "羅斯福路與師大路交叉口 (古亭國小前)" }, "geometry": { "type": "Point", "coordinates": [ 121.528187325800701, 25.020692681447553 ] } },
{ "type": "Feature", "properties": { "AREA": 0, "PERIMETER": 0, "NAME": "景美站", "LOC": "羅斯福路與景福街交叉口 (景美分局前)" }, "geometry": { "type": "Point", "coordinates": [ 121.540920992125194, 24.993178356596111 ] } },
{ "type": "Feature", "properties": { "AREA": 0, "PERIMETER": 0, "NAME": "頂溪站", "LOC": "永和路與竹林路交口" }, "geometry": { "type": "Point", "coordinates": [ 121.515449880246948, 25.013618645684311 ] } },
{ "type": "Feature", "properties": { "AREA": 0, "PERIMETER": 0, "NAME": "江子翠站", "LOC": "文化路與雙十路交叉口" }, "geometry": { "type": "Point", "coordinates": [ 121.472236760600097, 25.029904942785787 ] } },
{ "type": "Feature", "properties": { "AREA": 0, "PERIMETER": 0, "NAME": "龍山寺站", "LOC": "和平西路三段與康定路交叉口" }, "geometry": { "type": "Point", "coordinates": [ 121.501220861890275, 25.035229130503062 ] } },
{ "type": "Feature", "properties": { "AREA": 0, "PERIMETER": 0, "NAME": "板橋站", "LOC": "文化路與光正街交叉口" }, "geometry": { "type": "Point", "coordinates": [ 121.462881789857036, 25.014297124383742 ] } },
{ "type": "Feature", "properties": { "AREA": 0, "PERIMETER": 0, "NAME": "府中站", "LOC": "台鐵板橋火車站" }, "geometry": { "type": "Point", "coordinates": [ 121.459218919773136, 25.008934844943369 ] } },
{ "type": "Feature", "properties": { "AREA": 0, "PERIMETER": 0, "NAME": "亞東醫院站", "LOC": "南雅南路亞東醫院" }, "geometry": { "type": "Point", "coordinates": [ 121.452648875983016, 24.998589027397383 ] } },
{ "type": "Feature", "properties": { "AREA": 0, "PERIMETER": 0, "NAME": "土城站", "LOC": "土城中正路與和平路交叉口" }, "geometry": { "type": "Point", "coordinates": [ 121.444451578131805, 24.973226019823798 ] } },
{ "type": "Feature", "properties": { "AREA": 0, "PERIMETER": 0, "NAME": "永寧站", "LOC": "土城中央路承天路交叉口" }, "geometry": { "type": "Point", "coordinates": [ 121.436827296366758, 24.967220823923746 ] } },
{ "type": "Feature", "properties": { "AREA": 0, "PERIMETER": 0, "NAME": "大坪林站", "LOC": "北新路與民權路交叉口" }, "geometry": { "type": "Point", "coordinates": [ 121.541366034603797, 24.98291383339658 ] } },
{ "type": "Feature", "properties": { "AREA": 0, "PERIMETER": 0, "NAME": "景安站", "LOC": "景平路與景安路交口" }, "geometry": { "type": "Point", "coordinates": [ 121.50509077818279, 24.993922031757947 ] } },
{ "type": "Feature", "properties": { "AREA": 0, "PERIMETER": 0, "NAME": "新埔站", "LOC": "文化路與民生路交叉口" }, "geometry": { "type": "Point", "coordinates": [ 121.467987028282309, 25.02299594844628 ] } },
{ "type": "Feature", "properties": { "AREA": 0, "PERIMETER": 0, "NAME": "善導寺站", "LOC": "忠孝東路與林森路交叉口" }, "geometry": { "type": "Point", "coordinates": [ 121.523340188583092, 25.044813009018625 ] } },
{ "type": "Feature", "properties": { "AREA": 0, "PERIMETER": 0, "NAME": "小南門站", "LOC": "愛國西路與博愛路交叉口附近" }, "geometry": { "type": "Point", "coordinates": [ 121.510781764249003, 25.035672778690593 ] } },
{ "type": "Feature", "properties": { "AREA": 0, "PERIMETER": 0, "NAME": "中正紀念堂", "LOC": "羅斯福路與愛國東路交叉口 (中央銀行前)" }, "geometry": { "type": "Point", "coordinates": [ 121.517049319552754, 25.034274270193464 ] } },
{ "type": "Feature", "properties": { "AREA": 0, "PERIMETER": 0, "NAME": "古亭站", "LOC": "羅斯福路與和平東路交叉口" }, "geometry": { "type": "Point", "coordinates": [ 121.522567940844624, 25.026885634859678 ] } },
{ "type": "Feature", "properties": { "AREA": 0, "PERIMETER": 0, "NAME": "忠孝新生站", "LOC": "忠孝東路與新生南路交叉口" }, "geometry": { "type": "Point", "coordinates": [ 121.532918758413061, 25.042354841091839 ] } },
{ "type": "Feature", "properties": { "AREA": 0, "PERIMETER": 0, "NAME": "台北車站", "LOC": "台鐵火車站對面之忠孝西路地面下" }, "geometry": { "type": "Point", "coordinates": [ 121.517438024645301, 25.046233083441027 ] } },
{ "type": "Feature", "properties": { "AREA": 0, "PERIMETER": 0, "NAME": "西門站", "LOC": "中華路與成都路交叉口" }, "geometry": { "type": "Point", "coordinates": [ 121.508487733598571, 25.042212597086959 ] } },
{ "type": "Feature", "properties": { "AREA": 0, "PERIMETER": 0, "NAME": "南港展覽館站", "LOC": "南港研究院路交叉口北側" }, "geometry": { "type": "Point", "coordinates": [ 121.61762249277858, 25.0545656791776 ] } },
{ "type": "Feature", "properties": { "AREA": 0, "PERIMETER": 0, "NAME": "大直站", "LOC": "北安路139巷口附近" }, "geometry": { "type": "Point", "coordinates": [ 121.548148559834559, 25.080477334160232 ] } },
{ "type": "Feature", "properties": { "AREA": 0, "PERIMETER": 0, "NAME": "西湖站", "LOC": "內湖路一段西湖市場前" }, "geometry": { "type": "Point", "coordinates": [ 121.567212457779306, 25.082161414738113 ] } },
{ "type": "Feature", "properties": { "AREA": 0, "PERIMETER": 0, "NAME": "港墘站", "LOC": "內湖高工前" }, "geometry": { "type": "Point", "coordinates": [ 121.575283118433461, 25.079995003678306 ] } },
{ "type": "Feature", "properties": { "AREA": 0, "PERIMETER": 0, "NAME": "文德站", "LOC": "文德路101 巷口附近、內湖高中前" }, "geometry": { "type": "Point", "coordinates": [ 121.584968515432209, 25.078533106268434 ] } },
{ "type": "Feature", "properties": { "AREA": 0, "PERIMETER": 0, "NAME": "內湖站", "LOC": "金龍路與成功路交叉口附近" }, "geometry": { "type": "Point", "coordinates": [ 121.594205870194514, 25.083505565019735 ] } },
{ "type": "Feature", "properties": { "AREA": 0, "PERIMETER": 0, "NAME": "大湖公園站", "LOC": "成功路五段大湖公園旁" }, "geometry": { "type": "Point", "coordinates": [ 121.602312907046681, 25.08380866638888 ] } },
{ "type": "Feature", "properties": { "AREA": 0, "PERIMETER": 0, "NAME": "葫洲站", "LOC": "康寧路二段181巷口附近" }, "geometry": { "type": "Point", "coordinates": [ 121.607241545769568, 25.072689271218682 ] } },
{ "type": "Feature", "properties": { "AREA": 0, "PERIMETER": 0, "NAME": "東湖站", "LOC": "五分街加油站旁" }, "geometry": { "type": "Point", "coordinates": [ 121.611737232053514, 25.067577952984173 ] } },
{ "type": "Feature", "properties": { "AREA": 0, "PERIMETER": 0, "NAME": "南港軟體園區站", "LOC": "南港經貿園區內" }, "geometry": { "type": "Point", "coordinates": [ 121.615954181594986, 25.059898993896308 ] } },
{ "type": "Feature", "properties": { "AREA": 0, "PERIMETER": 0, "NAME": "海山站", "LOC": "公館溝與裕民路口海山高工旁" }, "geometry": { "type": "Point", "coordinates": [ 121.448875286152528, 24.985548276090544 ] } },
{ "type": "Feature", "properties": { "AREA": 0, "PERIMETER": 0, "NAME": "南京復興站", "LOC": "復興北路與南京東路交叉口(木柵線)" }, "geometry": { "type": "Point", "coordinates": [ 121.544039335903676, 25.052292279431963 ] } },
{ "type": "Feature", "properties": { "AREA": 0, "PERIMETER": 0, "NAME": "萬隆站", "LOC": "羅斯福路與萬隆街交叉口附近" }, "geometry": { "type": "Point", "coordinates": [ 121.539002269541726, 25.001965325198583 ] } },
{ "type": "Feature", "properties": { "AREA": 0, "PERIMETER": 0, "NAME": "公館站", "LOC": "羅斯福路與舟山路交叉口 (台灣大學旁" }, "geometry": { "type": "Point", "coordinates": [ 121.534347031885545, 25.014707482373041 ] } },
{ "type": "Feature", "properties": { "AREA": 0, "PERIMETER": 0, "NAME": "復興崗站", "LOC": "中央北路三段５３巷和原台鐵淡水線交叉口" }, "geometry": { "type": "Point", "coordinates": [ 121.485208135351613, 25.137446811852705 ] } },
{ "type": "Feature", "properties": { "AREA": 0, "PERIMETER": 0, "NAME": "七張站", "LOC": "北新路與寶橋路交叉口" }, "geometry": { "type": "Point", "coordinates": [ 121.542910905765964, 24.975082925897684 ] } },
{ "type": "Feature", "properties": { "AREA": 0, "PERIMETER": 0, "NAME": "新店市公所", "LOC": "北新路與中華路交叉口 (新店市公所前)" }, "geometry": { "type": "Point", "coordinates": [ 121.541298655934227, 24.967394430808007 ] } },
{ "type": "Feature", "properties": { "AREA": 0, "PERIMETER": 0, "NAME": "新店站", "LOC": "北新路台汽客運總站" }, "geometry": { "type": "Point", "coordinates": [ 121.537610041051892, 24.957871647770421 ] } },
{ "type": "Feature", "properties": { "AREA": 0, "PERIMETER": 0, "NAME": "南勢角站", "LOC": "台鐵中和貨運站" }, "geometry": { "type": "Point", "coordinates": [ 121.509172646459419, 24.990408531519769 ] } },
{ "type": "Feature", "properties": { "AREA": 0, "PERIMETER": 0, "NAME": "永安市場站", "LOC": "永安市場附近" }, "geometry": { "type": "Point", "coordinates": [ 121.511125386970477, 25.002555879534725 ] } },
{ "type": "Feature", "properties": { "AREA": 0, "PERIMETER": 0, "NAME": "行天宮站", "LOC": "民生東路與錦州街間之松江路下方" }, "geometry": { "type": "Point", "coordinates": [ 121.533156373815402, 25.057966034949327 ] } },
{ "type": "Feature", "properties": { "AREA": 0, "PERIMETER": 0, "NAME": "中山國小站", "LOC": "林森北路與新生北路間之民權東路下方" }, "geometry": { "type": "Point", "coordinates": [ 121.527664472284201, 25.062650999595302 ] } },
{ "type": "Feature", "properties": { "AREA": 0, "PERIMETER": 0, "NAME": "台北橋站", "LOC": "三重市重新路一、二段與文化南、北路交叉口兩側" }, "geometry": { "type": "Point", "coordinates": [ 121.499867980261229, 25.062943649795535 ] } },
{ "type": "Feature", "properties": { "AREA": 0, "PERIMETER": 0, "NAME": "菜寮站", "LOC": "三重市重新路三段，中正南路高架橋與光明路之間" }, "geometry": { "type": "Point", "coordinates": [ 121.49113831824576, 25.059648334719423 ] } },
{ "type": "Feature", "properties": { "AREA": 0, "PERIMETER": 0, "NAME": "三重站", "LOC": "三重市褔音街，重陽路一段與重新路四段交會口至河堤道" }, "geometry": { "type": "Point", "coordinates": [ 121.483946555371489, 25.055599499062517 ] } },
{ "type": "Feature", "properties": { "AREA": 0, "PERIMETER": 0, "NAME": "三重國小站", "LOC": "三重市三重國小前之三和路三段" }, "geometry": { "type": "Point", "coordinates": [ 121.497440896473989, 25.069935147639594 ] } },
{ "type": "Feature", "properties": { "AREA": 0, "PERIMETER": 0, "NAME": "三和國中站", "LOC": "三重市三和國中前之三和路四段" }, "geometry": { "type": "Point", "coordinates": [ 121.486347260469998, 25.076807791284704 ] } },
{ "type": "Feature", "properties": { "AREA": 0, "PERIMETER": 0, "NAME": "徐匯中學站", "LOC": "蘆洲市集賢路與中山一路交叉口" }, "geometry": { "type": "Point", "coordinates": [ 121.479616095318406, 25.080741786677226 ] } },
{ "type": "Feature", "properties": { "AREA": 0, "PERIMETER": 0, "NAME": "三民高中站", "LOC": "蘆洲市三民路與復興路口" }, "geometry": { "type": "Point", "coordinates": [ 121.473240934344048, 25.085670389689302 ] } },
{ "type": "Feature", "properties": { "AREA": 0, "PERIMETER": 0, "NAME": "蘆洲站", "LOC": "蘆洲市三民路與中正路交會路口東北側" }, "geometry": { "type": "Point", "coordinates": [ 121.464357337130139, 25.091563669599534 ] } },
{ "type": "Feature", "properties": { "AREA": 0, "PERIMETER": 0, "NAME": "輔大站", "LOC": "新莊市中正路輔仁大學校園東側" }, "geometry": { "type": "Point", "coordinates": [ 121.435812419816273, 25.032768730074892 ] } },
{ "type": "Feature", "properties": { "AREA": 0, "PERIMETER": 0, "NAME": "先嗇宮站", "LOC": "三重市重新路五段與光復路交會口" }, "geometry": { "type": "Point", "coordinates": [ 121.472122793616904, 25.046526870908352 ] } },
{ "type": "Feature", "properties": { "AREA": 0, "PERIMETER": 0, "NAME": "頭前庄站", "LOC": "新莊市中正路近思源路口" }, "geometry": { "type": "Point", "coordinates": [ 121.461624559152966, 25.03960733108276 ] } },
{ "type": "Feature", "properties": { "AREA": 0, "PERIMETER": 0, "NAME": "新莊站", "LOC": "新莊市新莊國中前之中正路" }, "geometry": { "type": "Point", "coordinates": [ 121.452317896756469, 25.036147908704091 ] } },
{ "type": "Feature", "properties": { "AREA": 0, "PERIMETER": 0, "NAME": "松江南京站", "LOC": "松江路與南京東路交叉口" }, "geometry": { "type": "Point", "coordinates": [ 121.533070364754067, 25.052409478910082 ] } },
{ "type": "Feature", "properties": { "AREA": 0, "PERIMETER": 0, "NAME": "小碧潭站", "LOC": "新店機場" }, "geometry": { "type": "Point", "coordinates": [ 121.535297842544452, 24.969554205353422 ] } },
{ "type": "Feature", "properties": { "AREA": 0, "PERIMETER": 0, "NAME": "松山機場站", "LOC": "松山機場(敦化北路340之9號)" }, "geometry": { "type": "Point", "coordinates": [ 121.551635110465341, 25.063104462027717 ] } },
{ "type": "Feature", "properties": { "AREA": 0, "PERIMETER": 0, "NAME": "大橋頭站", "LOC": "民權西路大橋國小旁" }, "geometry": { "type": "Point", "coordinates": [ 121.512848779450607, 25.062922384403787 ] } },
{ "type": "Feature", "properties": { "AREA": 0, "PERIMETER": 0, "NAME": "東門站", "LOC": "金山南路與永康街間之信義路下方(交會站)" }, "geometry": { "type": "Point", "coordinates": [ 121.528321773158339, 25.033927618168104 ] } },
{ "type": "Feature", "properties": { "AREA": 0, "PERIMETER": 0, "NAME": "劍南路站", "LOC": "北安路821巷口附近" }, "geometry": { "type": "Point", "coordinates": [ 121.555607153589463, 25.084898456471524 ] } },
{ "type": "Feature", "properties": { "AREA": 0, "PERIMETER": 0, "NAME": "迴龍站", "LOC": "新莊市中正路與中山路交會口，省立樂生療養院前" }, "geometry": { "type": "Point", "coordinates": [ 121.412662793256644, 25.022517157057678 ] } },
{ "type": "Feature", "properties": { "AREA": 0, "PERIMETER": 0, "NAME": "丹鳳站", "LOC": "新莊市中正路與民安路交會口" }, "geometry": { "type": "Point", "coordinates": [ 121.422699072520089, 25.028921091574233 ] } },
{ "type": "Feature", "properties": { "AREA": 0, "PERIMETER": 0, "NAME": "台北101\/世貿站", "LOC": "信義路世貿中心旁" }, "geometry": { "type": "Point", "coordinates": [ 121.563490094538835, 25.032979479154779 ] } },
{ "type": "Feature", "properties": { "AREA": 0, "PERIMETER": 0, "NAME": "大安森林公園站", "LOC": "信義路三段大安森林公園內(建國南路與新生南路間,經濟" }, "geometry": { "type": "Point", "coordinates": [ 121.535308028431402, 25.033535251072944 ] } },
{ "type": "Feature", "properties": { "AREA": 0, "PERIMETER": 0, "NAME": "信義安和站", "LOC": "信義安和路口" }, "geometry": { "type": "Point", "coordinates": [ 121.553232530756716, 25.033150042546495 ] } },
{ "type": "Feature", "properties": { "AREA": 0, "PERIMETER": 0, "NAME": "象山站", "LOC": "松仁路與信義路五段91巷間" }, "geometry": { "type": "Point", "coordinates": [ 121.570666336911756, 25.0327933243404 ] } },
{ "type": "Feature", "properties": { "AREA": 0, "PERIMETER": 0, "NAME": "南京復興站", "LOC": "復興北路與南京東路交叉口(松山線)" }, "geometry": { "type": "Point", "coordinates": [ 121.543576861092546, 25.051869806105053 ] } },
{ "type": "Feature", "properties": { "AREA": 0, "PERIMETER": 0, "NAME": "松江南京站", "LOC": "松江路與南京東路交叉口(松山線)" }, "geometry": { "type": "Point", "coordinates": [ 121.533049259548918, 25.052024514344055 ] } },
{ "type": "Feature", "properties": { "AREA": 0, "PERIMETER": 0, "NAME": "松山站", "LOC": "臺鐵松山站前八德路4段下方" }, "geometry": { "type": "Point", "coordinates": [ 121.577733392376459, 25.050001706485322 ] } },
{ "type": "Feature", "properties": { "AREA": 0, "PERIMETER": 0, "NAME": "南京三民站", "LOC": "南京東路5段與三民路口" }, "geometry": { "type": "Point", "coordinates": [ 121.564396882840398, 25.051436320911922 ] } },
{ "type": "Feature", "properties": { "AREA": 0, "PERIMETER": 0, "NAME": "台北小巨蛋站", "LOC": "台北小巨蛋西北側\r\n臺北小巨蛋北側" }, "geometry": { "type": "Point", "coordinates": [ 121.552003155287579, 25.051647242186274 ] } },
{ "type": "Feature", "properties": { "AREA": 0, "PERIMETER": 0, "NAME": "北門站", "LOC": "塔城街\r\n塔城街" }, "geometry": { "type": "Point", "coordinates": [ 121.510278645911299, 25.049294237623894 ] } },
{ "type": "Feature", "properties": { "AREA": 0, "PERIMETER": 0, "NAME": "中山站", "LOC": "原台鐵淡水線與南京西路交叉口(松山線)" }, "geometry": { "type": "Point", "coordinates": [ 121.520396899948025, 25.052675664748079 ] } },
{ "type": "Feature", "properties": { "AREA": 0, "PERIMETER": 0, "NAME": "頂埔站", "LOC": "約在新北市土城區中央路四段53號(鴻海精密工業公司前)" }, "geometry": { "type": "Point", "coordinates": [ 121.418881503349951, 24.959432693308976 ] } }
]
}
